[
  {
    "id": "biz003884",
    "type": "business",
    "url": "https://www.edtech.com",
    "logo": "/images/logo-sq.png",
    "name": "Emmadave Computer Techonology Services",
    "category": "Computer repair services",
    "verified": true,
    "location": {
      "address": "3, Nepa road, beside Igbagboyemi Pharmacy, Isabo 111102",
      "city": "Abeokuta",
      "state": "Ogun state",
      "map": "https://goo.gl/mapsy9ExQLSq37FL6EHm6"
    },
    "rating": {
      "rate": 3.5,
      "raters": 30
    },
    "hours": [
      false,
      ["8:30", "18:30"],
      ["8:30", "18:30"],
      ["15:30", "18:30"],
      ["8:30", "18:30"],
      false,
      ["8:30", "18:30"]
    ]
  },
  {
    "id": "prod39884",
    "type": "product",
    "title": "Dell Inspiron 5050, Intel Core i5 5th Gen, 8gb RAM, 256gb SSD. Very clean and rugged laptop. Suitable for office use. Long lasting battery",
    "media": "/images/product.jpeg",
    "labels": ["used", "15.6"],
    "price": 100000,
    "rating": {
      "rate": 3.5,
      "raters": 340
    },
    "bizDetails": {
      "name": "Emmadave Computer Technology Services",
      "logo": "/images/logo-sq.png",
      "category": "Computer repair services",
      "url": "https://www.edtech.com",
      "verified": true,
      "location": {
        "address": "3, Nepa road, beside Igbagboyemi Pharmacy, Isabo 111102",
        "city": "Abeokuta",
        "state": "Ogun state",
        "map": "https://goo.gl/mapsy9ExQLSq37FL6EHm6"
      }
    }
  },
  {
    "id": "ser39884",
    "type": "project",
    "title": "Create, design and format a document in Word, Powerpoint, Excel and CorelDRAW",
    "media": "/images/product.jpeg",
    "price": 100000,
    "duration": "2 days",
    "rating": {
      "rate": 4.6,
      "raters": 3440
    },
    "bizDetails": {
      "name": "Emmadave Computer Technology Services",
      "logo": "/images/logo-sq.png",
      "category": "Computer repair services",
      "url": "https://www.edtech.com",
      "verified": true,
      "location": {
        "address": "3, Nepa road, beside Igbagboyemi Pharmacy, Isabo 111102",
        "city": "Abeokuta",
        "state": "Ogun state",
        "map": "https://goo.gl/mapsy9ExQLSq37FL6EHm6"
      }
    }
  }
]
