[
  {
    "id": "20230701",
    "text": "Edtech on work. View profile",
    "media": [
      {
        "type": "pic",
        "url": "/images/ads.jpg"
      }
    ],
    "date": "2024-05-06T10:00:00.000Z",
    "thumbsUp": 10,
    "comments": [],
    "bizDetails": {
      "name": "Emmadave Computer Technology Services",
      "logo": "/images/logo-sq.png",
      "category": "Computer repair services",
      "url": "https://www.edtech.com",
      "verified": true,
      "location": {
        "address": "3, Nepa road, beside Igbagboyemi Pharmacy, Isabo 111102",
        "city": "Abeokuta",
        "state": "Ogun state",
        "map": "https://goo.gl/mapsy9ExQLSq37FL6EHm6"
      }
    }
  },
  {
    "id": "20230701",
    "text": "Edtech on work. View profile",
    "media": [
      {
        "type": "pic",
        "url": "/images/ads.jpg"
      }
    ],
    "date": "2024-05-06T10:00:00.000Z",
    "thumbsUp": 10,
    "comments": [],
    "bizDetails": {
      "name": "Emmadave Computer Technology Services",
      "logo": "/images/logo-sq.png",
      "category": "Computer repair services",
      "url": "https://www.edtech.com",
      "verified": true,
      "location": {
        "address": "3, Nepa road, beside Igbagboyemi Pharmacy, Isabo 111102",
        "city": "Abeokuta",
        "state": "Ogun state",
        "map": "https://goo.gl/mapsy9ExQLSq37FL6EHm6"
      }
    }
  },
  {
    "id": "20230701",
    "text": "Edtech on work. View profile",
    "media": [
      {
        "type": "pic",
        "url": "/images/ads.jpg"
      }
    ],
    "date": "2024-05-06T10:00:00.000Z",
    "thumbsUp": 10,
    "comments": [],
    "bizDetails": {
      "name": "Emmadave Computer Technology Services",
      "logo": "/images/logo-sq.png",
      "category": "Computer repair services",
      "url": "https://www.edtech.com",
      "verified": true,
      "location": {
        "address": "3, Nepa road, beside Igbagboyemi Pharmacy, Isabo 111102",
        "city": "Abeokuta",
        "state": "Ogun state",
        "map": "https://goo.gl/mapsy9ExQLSq37FL6EHm6"
      }
    }
  },
  {
    "id": "20230701",
    "text": "Edtech on work. View profile",
    "media": [
      {
        "type": "pic",
        "url": "/images/ads.jpg"
      }
    ],
    "date": "2024-05-06T10:00:00.000Z",
    "thumbsUp": 10,
    "comments": [],
    "bizDetails": {
      "name": "Emmadave Computer Technology Services",
      "logo": "/images/logo-sq.png",
      "category": "Computer repair services",
      "url": "https://www.edtech.com",
      "verified": true,
      "location": {
        "address": "3, Nepa road, beside Igbagboyemi Pharmacy, Isabo 111102",
        "city": "Abeokuta",
        "state": "Ogun state",
        "map": "https://goo.gl/mapsy9ExQLSq37FL6EHm6"
      }
    }
  },
  {
    "id": "20230701",
    "text": "Edtech on work. View profile",
    "media": [
      {
        "type": "pic",
        "url": "/images/ads.jpg"
      }
    ],
    "date": "2024-05-06T10:00:00.000Z",
    "thumbsUp": 10,
    "comments": [],
    "bizDetails": {
      "name": "Emmadave Computer Technology Services",
      "logo": "/images/logo-sq.png",
      "category": "Computer repair services",
      "url": "https://www.edtech.com",
      "verified": true,
      "location": {
        "address": "3, Nepa road, beside Igbagboyemi Pharmacy, Isabo 111102",
        "city": "Abeokuta",
        "state": "Ogun state",
        "map": "https://goo.gl/mapsy9ExQLSq37FL6EHm6"
      }
    }
  },
  {
    "id": "20230701",
    "text": "Edtech on work. View profile",
    "media": [
      {
        "type": "pic",
        "url": "/images/ads.jpg"
      }
    ],
    "date": "2024-05-06T10:00:00.000Z",
    "thumbsUp": 10,
    "comments": [],
    "bizDetails": {
      "name": "Emmadave Computer Technology Services",
      "logo": "/images/logo-sq.png",
      "category": "Computer repair services",
      "url": "https://www.edtech.com",
      "verified": true,
      "location": {
        "address": "3, Nepa road, beside Igbagboyemi Pharmacy, Isabo 111102",
        "city": "Abeokuta",
        "state": "Ogun state",
        "map": "https://goo.gl/mapsy9ExQLSq37FL6EHm6"
      }
    }
  },
  {
    "id": "20230701",
    "text": "Edtech on work. View profile",
    "media": [
      {
        "type": "pic",
        "url": "/images/ads.jpg"
      }
    ],
    "date": "2024-05-06T10:00:00.000Z",
    "thumbsUp": 10,
    "comments": [],
    "bizDetails": {
      "name": "Emmadave Computer Technology Services",
      "logo": "/images/logo-sq.png",
      "category": "Computer repair services",
      "url": "https://www.edtech.com",
      "verified": true,
      "location": {
        "address": "3, Nepa road, beside Igbagboyemi Pharmacy, Isabo 111102",
        "city": "Abeokuta",
        "state": "Ogun state",
        "map": "https://goo.gl/mapsy9ExQLSq37FL6EHm6"
      }
    }
  }
]
